[
  {
    "latitude": 42.3136803635408,
    "longitude": -71.38295104099733,
    "type": "PV",
    "module_number": 2155,
    "label": "Ground-Mounted Solar Panel Array",
    "town": "Framingham",
    "state": "Massachusetts",
    "country": "United States",
    "userid": "QWecNcxhyvP6j6sBN11hBsfZDau1",
    "title": "Solar Farm Framingham"
  },
  {
    "latitude": 35.2397498816683,
    "longitude": -119.02084409607578,
    "type": "PV",
    "module_number": 0,
    "label": "Solar Canal",
    "town": "Bakersfield",
    "state": "California",
    "country": "United States",
    "userid": "QWecNcxhyvP6j6sBN11hBsfZDau1",
    "title": "Bakersfield Solar Canal"
  },
  {
    "latitude": 42.473578752859865,
    "longitude": -71.23642289182585,
    "type": "PV",
    "module_number": 0,
    "label": "Solar Noise Barrier",
    "town": "Lexington",
    "state": "Massachusetts",
    "country": "United States",
    "userid": "QWecNcxhyvP6j6sBN11hBsfZDau1",
    "title": "Solar Noise Barrier"
  },
  {
    "latitude": 42.58194950125034,
    "longitude": -71.76008801772156,
    "type": "PV",
    "module_number": 0,
    "label": "Ground-Mounted Solar Panel Array",
    "town": "Fitchburg",
    "state": "Massachusetts",
    "country": "United States",
    "userid": "QWecNcxhyvP6j6sBN11hBsfZDau1",
    "title": "Fitchburg Solar Farm Generative Design"
  },
  {
    "latitude": 35.81284404374666,
    "longitude": -78.7501240418377,
    "type": "PV",
    "module_number": 0,
    "label": "HSAT Solar Farm",
    "town": "Raleigh",
    "state": "North Carolina",
    "country": "United States",
    "userid": "QWecNcxhyvP6j6sBN11hBsfZDau1",
    "title": "SAS Solar Arrays"
  },
  {
    "latitude": 28.373886495744546,
    "longitude": -81.5624358808899,
    "type": "PV",
    "module_number": 0,
    "label": "Mickey Mouse Solar Farm",
    "town": "Orlando",
    "state": "Florida",
    "country": "United States",
    "userid": "QWecNcxhyvP6j6sBN11hBsfZDau1",
    "title": "Mickey Mouse Solar Farm"
  },
  {
    "latitude": 40.50104939260215,
    "longitude": -112.3735469155903,
    "type": "Parabolic Dish",
    "module_number": 0,
    "label": "Tooele Army Depot Dish Sterling Engines",
    "town": "Tooele",
    "state": "Utah",
    "country": "United States",
    "userid": "QWecNcxhyvP6j6sBN11hBsfZDau1",
    "title": "Tooele Army Depot Dish Sterling Engines"
  },
  {
    "latitude": 35.804781891550604,
    "longitude": -114.97646752496185,
    "type": "Parabolic Trough",
    "module_number": 0,
    "label": "Nevada Solar One Parabolic Troughs",
    "town": "Boulder City",
    "state": "Nevada",
    "country": "United States",
    "userid": "QWecNcxhyvP6j6sBN11hBsfZDau1",
    "title": "Nevada Solar One Parabolic Troughs"
  },
  {
    "latitude": 19.713619499598927,
    "longitude": -156.03513928511123,
    "type": "Parabolic Trough",
    "module_number": 0,
    "label": "Keahole Point Hawaii Parabolic Troughs",
    "town": "Keahole Point",
    "state": "Hawaii",
    "country": "United States",
    "userid": "QWecNcxhyvP6j6sBN11hBsfZDau1",
    "title": "Keahole Point Hawaii"
  },
  {
    "latitude": 32.15910168004556,
    "longitude": -110.90092954103089,
    "type": "Fresnel Reflector",
    "module_number": 0,
    "label": "Tucson Electric Power's Linear Fresnel Reflectors",
    "town": "Tucson",
    "state": "Arizona",
    "country": "United States",
    "userid": "QWecNcxhyvP6j6sBN11hBsfZDau1",
    "title": "Tucson Electric Power's Linear Fresnel Reflectors"
  },
  {
    "latitude": 37.44574069680563,
    "longitude": -6.249946169311531,
    "type": "Power Tower",
    "module_number": 0,
    "label": "PS10 Solar Power Tower",
    "town": "Seville",
    "state": "Seville",
    "country": "Spain",
    "userid": "QWecNcxhyvP6j6sBN11hBsfZDau1",
    "title": "PS10 Solar Power Tower"
  },
  {
    "latitude": 44.454924,
    "longitude": -73.177891,
    "type": "Building",
    "label": "South Burlington High School",
    "town": "South Burlington",
    "state": "Vermont",
    "country": "United States",
    "userid": "QWecNcxhyvP6j6sBN11hBsfZDau1",
    "title": "South Burlington High School Vermont"
  },
  {
    "latitude": 33.225546302957646,
    "longitude": -105.74311446654394,
    "type": "Building",
    "label": "Mescalero Apache School",
    "town": "Mescalero",
    "state": "New Mexico",
    "country": "United States",
    "userid": "QWecNcxhyvP6j6sBN11hBsfZDau1",
    "title": "MAS"
  },
  {
    "latitude": 38.8976763,
    "longitude": -77.0365298,
    "type": "Building",
    "label": "The White House",
    "town": "Washington DC",
    "country": "United States",
    "userid": "QWecNcxhyvP6j6sBN11hBsfZDau1",
    "title": "White House"
  },
  {
    "latitude": 20.6834718,
    "longitude": -88.56849969999999,
    "type": "Building",
    "label": "Temple of Kukulcán",
    "town": "Tinúm Municipality",
    "state": "Yucatán",
    "country": "Mexico",
    "userid": "QWecNcxhyvP6j6sBN11hBsfZDau1",
    "title": "Mayan Pyramid"
  },
  {
    "latitude": 32.64464465095667,
    "longitude": 51.66765981904907,
    "type": "Building",
    "label": "Si-o-se-pol",
    "town": "Isfahan",
    "state": "Isfahan",
    "country": "Iran",
    "userid": "QWecNcxhyvP6j6sBN11hBsfZDau1",
    "title": "Si-o-se-pol"
  }
]
